{
    "type": "FeatureCollection",
    "features": [
        {
            "type": "Feature",
            "properties": { "name": "Skaylock Hill" },
            "geometry": {
                "type": "Point",
                "coordinates": [-1.9509225, 54.7998567]
            }
        },
        {
            "type": "Feature",
            "properties": { "name": "Bainbridge Hill" },
            "geometry": {
                "type": "Point",
                "coordinates": [-2.0174825, 54.8471528]
            }
        },
        {
            "type": "Feature",
            "properties": { "name": "Stoterley Hill" },
            "geometry": {
                "type": "Point",
                "coordinates": [-1.9743673, 54.8323549]
            }
        },
        {
            "type": "Feature",
            "properties": { "name": "Cross Rigg" },
            "geometry": {
                "type": "Point",
                "coordinates": [-1.9627531, 54.8226763]
            }
        },
        {
            "type": "Feature",
            "properties": { "name": "Harehope Hill" },
            "geometry": {
                "type": "Point",
                "coordinates": [-1.9879103, 54.8164915]
            }
        },
        {
            "type": "Feature",
            "properties": { "name": "Humber Hill" },
            "geometry": {
                "type": "Point",
                "coordinates": [-1.7806641, 54.813352]
            }
        },
        {
            "type": "Feature",
            "properties": { "name": "Nelson Hill" },
            "geometry": {
                "type": "Point",
                "coordinates": [-1.5945968, 55.0935239]
            }
        },
        {
            "type": "Feature",
            "properties": { "name": "Billy Hill" },
            "geometry": {
                "type": "Point",
                "coordinates": [-1.7594283, 54.7387253]
            }
        },
        {
            "type": "Feature",
            "properties": { "name": "Broom Hill" },
            "geometry": {
                "type": "Point",
                "coordinates": [-1.7591172, 54.747919]
            }
        },
        {
            "type": "Feature",
            "properties": { "name": "Observatory Hill" },
            "geometry": {
                "type": "Point",
                "coordinates": [-1.5839448, 54.7673852]
            }
        },
        {
            "type": "Feature",
            "properties": { "name": "Copt Hill" },
            "geometry": {
                "type": "Point",
                "coordinates": [-1.4466344, 54.8381965]
            }
        },
        {
            "type": "Feature",
            "properties": { "name": "Blackim Hill" },
            "geometry": {
                "type": "Point",
                "coordinates": [-1.5610878, 54.9158327]
            }
        },
        {
            "type": "Feature",
            "properties": { "name": "Sheddon's Hill" },
            "geometry": {
                "type": "Point",
                "coordinates": [-1.5613882, 54.9115898]
            }
        },
        {
            "type": "Feature",
            "properties": { "name": "Black Hill" },
            "geometry": {
                "type": "Point",
                "coordinates": [-1.5646498, 54.9311972]
            }
        },
        {
            "type": "Feature",
            "properties": {},
            "geometry": {
                "type": "Point",
                "coordinates": [-1.5512173, 54.9213824]
            }
        },
        {
            "type": "Feature",
            "properties": { "name": "Rabbit Hills" },
            "geometry": {
                "type": "Point",
                "coordinates": [-1.639065, 54.8747661]
            }
        },
        {
            "type": "Feature",
            "properties": { "name": "Pelton Hills" },
            "geometry": {
                "type": "Point",
                "coordinates": [-1.6298382, 54.8682469]
            }
        },
        {
            "type": "Feature",
            "properties": { "name": "Whinnel Hill" },
            "geometry": {
                "type": "Point",
                "coordinates": [-1.6506522, 54.9027325]
            }
        },
        {
            "type": "Feature",
            "properties": { "name": "Burdon Moor" },
            "geometry": {
                "type": "Point",
                "coordinates": [-1.6587862, 54.914474]
            }
        },
        {
            "type": "Feature",
            "properties": { "name": "Hunter's Hill" },
            "geometry": {
                "type": "Point",
                "coordinates": [-1.8936211, 54.9772072]
            }
        },
        {
            "type": "Feature",
            "properties": {},
            "geometry": {
                "type": "Point",
                "coordinates": [-1.3962086, 54.7776209]
            }
        },
        {
            "type": "Feature",
            "properties": { "name": "Hangman's Hill" },
            "geometry": {
                "type": "Point",
                "coordinates": [-1.5890265, 54.7809418]
            }
        },
        {
            "type": "Feature",
            "properties": { "name": "Northumberlandia" },
            "geometry": {
                "type": "Point",
                "coordinates": [-1.6297881, 55.0886547]
            }
        },
        {
            "type": "Feature",
            "properties": {},
            "geometry": {
                "type": "Point",
                "coordinates": [-1.5378601, 55.0128132]
            }
        },
        {
            "type": "Feature",
            "properties": { "name": "Currock Hill" },
            "geometry": {
                "type": "Point",
                "coordinates": [-1.8142893, 54.9290343]
            }
        },
        {
            "type": "Feature",
            "properties": { "name": "Pontop Pike" },
            "geometry": {
                "type": "Point",
                "coordinates": [-1.7682724, 54.8700544]
            }
        },
        {
            "type": "Feature",
            "properties": { "name": "Penshaw Hill" },
            "geometry": {
                "type": "Point",
                "coordinates": [-1.4812818, 54.8830165]
            }
        },
        {
            "type": "Feature",
            "properties": { "name": "Boldon Hills" },
            "geometry": {
                "type": "Point",
                "coordinates": [-1.4554678, 54.9353553]
            }
        },
        {
            "type": "Feature",
            "properties": { "name": "White Hill" },
            "geometry": {
                "type": "Point",
                "coordinates": [-1.5678941, 54.9354488]
            }
        },
        {
            "type": "Feature",
            "properties": { "name": "Sheriff Hill" },
            "geometry": {
                "type": "Point",
                "coordinates": [-1.5812768, 54.9359492]
            }
        },
        {
            "type": "Feature",
            "properties": { "name": "Beacon Hill" },
            "geometry": {
                "type": "Point",
                "coordinates": [-1.3848153, 54.9686431]
            }
        },
        {
            "type": "Feature",
            "properties": { "name": "Berwick Hill" },
            "geometry": {
                "type": "Point",
                "coordinates": [-1.7292002, 55.0735617]
            }
        },
        {
            "type": "Feature",
            "properties": { "name": "Camperdown" },
            "geometry": {
                "type": "Point",
                "coordinates": [-1.5620643, 55.040143]
            }
        },
        {
            "type": "Feature",
            "properties": { "name": "Westerhope" },
            "geometry": {
                "type": "Point",
                "coordinates": [-1.7068258, 54.9962677]
            }
        },
        {
            "type": "Feature",
            "properties": { "name": "Heddon Laws" },
            "geometry": {
                "type": "Point",
                "coordinates": [-1.7828575, 55.0171508]
            }
        },
        {
            "type": "Feature",
            "properties": { "name": "Blackamoor Hill" },
            "geometry": {
                "type": "Point",
                "coordinates": [-1.69808, 54.9145595]
            }
        },
        {
            "type": "Feature",
            "properties": { "name": "Tunstall Hills" },
            "geometry": {
                "type": "Point",
                "coordinates": [-1.3909732, 54.8835013]
            }
        },
        {
            "type": "Feature",
            "properties": { "name": "Whinney Hill" },
            "geometry": {
                "type": "Point",
                "coordinates": [-1.565334, 54.7697793]
            }
        },
        {
            "type": "Feature",
            "properties": { "name": "Elvet Hill" },
            "geometry": {
                "type": "Point",
                "coordinates": [-1.583936, 54.7644943]
            }
        },
        {
            "type": "Feature",
            "properties": { "name": "Broom Hill" },
            "geometry": {
                "type": "Point",
                "coordinates": [-1.5504772, 54.7681035]
            }
        },
        {
            "type": "Feature",
            "properties": { "name": "Battersley Hill" },
            "geometry": {
                "type": "Point",
                "coordinates": [-1.3084867, 54.725044]
            }
        },
        {
            "type": "Feature",
            "properties": { "name": "Porrit's Close Hill" },
            "geometry": {
                "type": "Point",
                "coordinates": [-1.308092, 54.7200514]
            }
        },
        {
            "type": "Feature",
            "properties": { "name": "Grindon Sandhill" },
            "geometry": {
                "type": "Point",
                "coordinates": [-1.4421075, 54.8841455]
            }
        },
        {
            "type": "Feature",
            "properties": { "name": "Slate Hill" },
            "geometry": {
                "type": "Point",
                "coordinates": [-1.874907, 55.0878859]
            }
        },
        {
            "type": "Feature",
            "properties": { "name": "Whitley Hill" },
            "geometry": {
                "type": "Point",
                "coordinates": [-1.8721122, 55.0912752]
            }
        },
        {
            "type": "Feature",
            "properties": { "name": "Carr Hill" },
            "geometry": {
                "type": "Point",
                "coordinates": [-1.4697234, 54.8809408]
            }
        },
        {
            "type": "Feature",
            "properties": { "name": "Humbledon Hill" },
            "geometry": {
                "type": "Point",
                "coordinates": [-1.4092872, 54.8903566]
            }
        },
        {
            "type": "Feature",
            "properties": { "name": "Hasting Hill" },
            "geometry": {
                "type": "Point",
                "coordinates": [-1.4521818, 54.883288]
            }
        },
        {
            "type": "Feature",
            "properties": { "name": "Owlet Hill" },
            "geometry": {
                "type": "Point",
                "coordinates": [-1.7197949, 54.9314941]
            }
        },
        {
            "type": "Feature",
            "properties": { "name": "Worm Hill" },
            "geometry": {
                "type": "Point",
                "coordinates": [-1.5173651, 54.8805015]
            }
        },
        {
            "type": "Feature",
            "properties": { "name": "Beacon Hill" },
            "geometry": {
                "type": "Point",
                "coordinates": [-1.3161063, 54.8020701]
            }
        },
        {
            "type": "Feature",
            "properties": { "name": "Namey Hill" },
            "geometry": {
                "type": "Point",
                "coordinates": [-1.3930001, 54.9308516]
            }
        },
        {
            "type": "Feature",
            "properties": { "name": "Herrington Hill" },
            "geometry": {
                "type": "Point",
                "coordinates": [-1.4596143, 54.8682104]
            }
        },
        {
            "type": "Feature",
            "properties": { "name": "Mill Hill" },
            "geometry": {
                "type": "Point",
                "coordinates": [-1.4140939, 54.8722669]
            }
        },
        {
            "type": "Feature",
            "properties": { "name": "Building Hill" },
            "geometry": {
                "type": "Point",
                "coordinates": [-1.3800223, 54.9007749]
            }
        },
        {
            "type": "Feature",
            "properties": { "name": "Burn Hill" },
            "geometry": {
                "type": "Point",
                "coordinates": [-1.4720773, 54.8782884]
            }
        },
        {
            "type": "Feature",
            "properties": { "name": "Newport Hill" },
            "geometry": {
                "type": "Point",
                "coordinates": [-1.4109597, 54.8783561]
            }
        },
        {
            "type": "Feature",
            "properties": { "name": "Sourmilk Hill" },
            "geometry": {
                "type": "Point",
                "coordinates": [-1.4036518, 54.8641896]
            }
        },
        {
            "type": "Feature",
            "properties": { "name": "Mill Hill" },
            "geometry": {
                "type": "Point",
                "coordinates": [-1.3761648, 54.8655679]
            }
        },
        {
            "type": "Feature",
            "properties": { "name": "Howly Hill" },
            "geometry": {
                "type": "Point",
                "coordinates": [-1.3948302, 54.8600052]
            }
        },
        {
            "type": "Feature",
            "properties": { "name": "Bunker Hill" },
            "geometry": {
                "type": "Point",
                "coordinates": [-1.4839723, 54.862728]
            }
        },
        {
            "type": "Feature",
            "properties": { "name": "Houghton Hill" },
            "geometry": {
                "type": "Point",
                "coordinates": [-1.4686702, 54.8498025]
            }
        },
        {
            "type": "Feature",
            "properties": { "name": "Down Hill" },
            "geometry": {
                "type": "Point",
                "coordinates": [-1.4542858, 54.9346522]
            }
        },
        {
            "type": "Feature",
            "properties": { "name": "Nanny Cow Hill" },
            "geometry": {
                "type": "Point",
                "coordinates": [-1.4522986, 54.9341245]
            }
        },
        {
            "type": "Feature",
            "properties": { "name": "Quarry Hill" },
            "geometry": {
                "type": "Point",
                "coordinates": [-1.4398734, 54.9365958]
            }
        },
        {
            "type": "Feature",
            "properties": { "name": "Condercum Hill" },
            "geometry": {
                "type": "Point",
                "coordinates": [-1.6639191, 54.9771434]
            }
        },
        {
            "type": "Feature",
            "properties": { "name": "Cow Hill" },
            "geometry": {
                "type": "Point",
                "coordinates": [-1.6352458, 54.9891216]
            }
        },
        {
            "type": "Feature",
            "properties": { "name": "Kite Hill" },
            "geometry": {
                "type": "Point",
                "coordinates": [-1.7189798, 54.9357047]
            }
        },
        {
            "type": "Feature",
            "properties": { "name": "Redding's Hill" },
            "geometry": {
                "type": "Point",
                "coordinates": [-1.3844309, 54.696347]
            }
        },
        {
            "type": "Feature",
            "properties": { "name": "Beacon Hill" },
            "geometry": {
                "type": "Point",
                "coordinates": [-1.4786857, 54.7349305]
            }
        },
        {
            "type": "Feature",
            "properties": { "name": "Whangdon Hill" },
            "geometry": {
                "type": "Point",
                "coordinates": [-1.319325, 54.7002782]
            }
        },
        {
            "type": "Feature",
            "properties": { "name": "Stony Hill" },
            "geometry": {
                "type": "Point",
                "coordinates": [-1.9494228, 54.8372371]
            }
        },
        {
            "type": "Feature",
            "properties": { "name": "Cherry Knowle Hill" },
            "geometry": {
                "type": "Point",
                "coordinates": [-1.3740691, 54.8580717]
            }
        },
        {
            "type": "Feature",
            "properties": { "name": "Maiden Paps" },
            "geometry": {
                "type": "Point",
                "coordinates": [-1.3920495, 54.8854193]
            }
        },
        {
            "type": "Feature",
            "properties": { "name": "Nettlesworth Hill" },
            "geometry": {
                "type": "Point",
                "coordinates": [-1.6079682, 54.8353549]
            }
        },
        {
            "type": "Feature",
            "properties": { "name": "Mountjoy" },
            "geometry": {
                "type": "Point",
                "coordinates": [-1.5679108, 54.7677977]
            }
        },
        {
            "type": "Feature",
            "properties": {},
            "geometry": {
                "type": "Point",
                "coordinates": [-1.608958, 55.0837744]
            }
        },
        {
            "type": "Feature",
            "properties": {},
            "geometry": {
                "type": "Point",
                "coordinates": [-1.565105, 55.0958662]
            }
        },
        {
            "type": "Feature",
            "properties": { "name": "Kirk Hill" },
            "geometry": {
                "type": "Point",
                "coordinates": [-1.7341345, 55.0718692]
            }
        },
        {
            "type": "Feature",
            "properties": { "name": "Ewe Hill" },
            "geometry": {
                "type": "Point",
                "coordinates": [-1.691119, 55.0844437]
            }
        },
        {
            "type": "Feature",
            "properties": { "name": "Pinnock Hill" },
            "geometry": {
                "type": "Point",
                "coordinates": [-1.5744171, 54.7550948]
            }
        },
        {
            "type": "Feature",
            "properties": { "name": "The Mound" },
            "geometry": {
                "type": "Point",
                "coordinates": [-1.5800867, 54.7594393]
            }
        },
        {
            "type": "Feature",
            "properties": { "name": "Paddock Hill" },
            "geometry": {
                "type": "Point",
                "coordinates": [-1.723963, 54.9344899]
            }
        },
        {
            "type": "Feature",
            "properties": { "name": "Isabella Heap" },
            "geometry": {
                "type": "Point",
                "coordinates": [-1.5345879, 55.1196846]
            }
        },
        {
            "type": "Feature",
            "properties": { "name": "Weetslade Hill" },
            "geometry": {
                "type": "Point",
                "coordinates": [-1.6044108, 55.0469199]
            }
        },
        {
            "type": "Feature",
            "properties": { "name": "Todridge Fell" },
            "geometry": {
                "type": "Point",
                "coordinates": [-2.0045815, 55.0421903]
            }
        },
        {
            "type": "Feature",
            "properties": { "name": "Down Hill" },
            "geometry": {
                "type": "Point",
                "coordinates": [-1.9926668, 55.0109877]
            }
        }
    ]
}
