<?xml version="1.0" encoding="UTF-8"?>
<kml xmlns="http://www.opengis.net/kml/2.2">
  <Document>
    <name>Jetlag Newcastle</name>
    <description/>
    <Style id="icon-1899-9C27B0-labelson-nodesc">
      <IconStyle>
        <color>ffb0279c</color>
        <scale>1</scale>
        <Icon>
          <href>https://www.gstatic.com/mapspro/images/stock/503-wht-blank_maps.png</href>
        </Icon>
        <hotSpot x="32" xunits="pixels" y="64" yunits="insetPixels"/>
      </IconStyle>
      <BalloonStyle>
        <text><![CDATA[<h3>$[name]</h3>]]></text>
      </BalloonStyle>
    </Style>
    <Style id="icon-1899-FFEA00-labelson-nodesc">
      <IconStyle>
        <color>ff00eaff</color>
        <scale>1</scale>
        <Icon>
          <href>https://www.gstatic.com/mapspro/images/stock/503-wht-blank_maps.png</href>
        </Icon>
        <hotSpot x="32" xunits="pixels" y="64" yunits="insetPixels"/>
      </IconStyle>
      <BalloonStyle>
        <text><![CDATA[<h3>$[name]</h3>]]></text>
      </BalloonStyle>
    </Style>
    <Style id="poly-000000-1200-77-nodesc-normal">
      <LineStyle>
        <color>ff000000</color>
        <width>1.2</width>
      </LineStyle>
      <PolyStyle>
        <color>4d000000</color>
        <fill>1</fill>
        <outline>1</outline>
      </PolyStyle>
      <BalloonStyle>
        <text><![CDATA[<h3>$[name]</h3>]]></text>
      </BalloonStyle>
    </Style>
    <Style id="poly-000000-1200-77-nodesc-highlight">
      <LineStyle>
        <color>ff000000</color>
        <width>1.8</width>
      </LineStyle>
      <PolyStyle>
        <color>4d000000</color>
        <fill>1</fill>
        <outline>1</outline>
      </PolyStyle>
      <BalloonStyle>
        <text><![CDATA[<h3>$[name]</h3>]]></text>
      </BalloonStyle>
    </Style>
    <StyleMap id="poly-000000-1200-77-nodesc">
      <Pair>
        <key>normal</key>
        <styleUrl>#poly-000000-1200-77-nodesc-normal</styleUrl>
      </Pair>
      <Pair>
        <key>highlight</key>
        <styleUrl>#poly-000000-1200-77-nodesc-highlight</styleUrl>
      </Pair>
    </StyleMap>
    <Folder>
      <name>Hiding Zone</name>
      <Placemark>
        <name>Hiding Zone</name>
        <styleUrl>#poly-000000-1200-77-nodesc</styleUrl>
        <Polygon>
          <outerBoundaryIs>
            <LinearRing>
              <tessellate>1</tessellate>
              <coordinates>
                -1.4544582,55.0597998,0
                -1.4675393,55.0593758,0
                -1.4790519,55.054121,0
                -1.4879975,55.0471499,0
                -1.4947295,55.0472688,0
                -1.5025266,55.0457353,0
                -1.504557,55.0420784,0
                -1.5192562,55.041056,0
                -1.5228232,55.0401404,0
                -1.5284477,55.0397134,0
                -1.5363888,55.038105,0
                -1.5471888,55.0315793,0
                -1.5624517,55.028791,0
                -1.571964,55.0291506,0
                -1.5817916,55.0294703,0
                -1.5942097,55.0307234,0
                -1.6068622,55.0332732,0
                -1.6154728,55.0343611,0
                -1.627977,55.0336041,0
                -1.6327465,55.0334918,0
                -1.6482915,55.0270849,0
                -1.6529873,55.0250172,0
                -1.6646025,55.0230118,0
                -1.6707207,55.0215974,0
                -1.6726561,55.0183754,0
                -1.6792336,55.0177914,0
                -1.6835792,55.0159278,0
                -1.6863585,55.014655,0
                -1.6896529,55.0134071,0
                -1.6925189,55.0125902,0
                -1.6943766,55.0121791,0
                -1.7009022,55.0111003,0
                -1.7072553,55.0102244,0
                -1.7172141,55.0082696,0
                -1.7226222,55.0054215,0
                -1.7276864,55.0044436,0
                -1.7294024,54.9942791,0
                -1.7139528,54.987933,0
                -1.7204597,54.9848968,0
                -1.7320186,54.9838342,0
                -1.731109,54.9804719,0
                -1.7298455,54.9794983,0
                -1.722405,54.9783022,0
                -1.7180518,54.9737469,0
                -1.7113079,54.9742192,0
                -1.7034886,54.9727002,0
                -1.6818553,54.9665068,0
                -1.6880285,54.9602328,0
                -1.6847713,54.9566816,0
                -1.6769413,54.9543267,0
                -1.6717728,54.9518481,0
                -1.6601497,54.9502418,0
                -1.651599,54.9407888,0
                -1.6343934,54.9318,0
                -1.6266656,54.921315,0
                -1.6155962,54.9175504,0
                -1.6014375,54.9191122,0
                -1.5921219,54.9159287,0
                -1.5905734,54.9136305,0
                -1.5882093,54.9069601,0
                -1.5926502,54.899511,0
                -1.5867888,54.8915542,0
                -1.5778203,54.8874163,0
                -1.5675668,54.8861754,0
                -1.5565848,54.8826007,0
                -1.5289923,54.884992,0
                -1.5052217,54.889045,0
                -1.4888354,54.8924074,0
                -1.4784986,54.9009812,0
                -1.4715279,54.903653,0
                -1.4637839,54.9027713,0
                -1.4542648,54.894305,0
                -1.4428613,54.8878121,0
                -1.4257096,54.8860706,0
                -1.4176534,54.8797328,0
                -1.4008826,54.8791728,0
                -1.3877232,54.8781871,0
                -1.3704986,54.8761875,0
                -1.3559196,54.87531,0
                -1.3535694,54.8799906,0
                -1.357556,54.8988943,0
                -1.3491237,54.9055875,0
                -1.3553404,54.9153754,0
                -1.3596749,54.9356205,0
                -1.3525499,54.946913,0
                -1.3516487,54.9571957,0
                -1.3534084,54.9614163,0
                -1.3603861,54.9719377,0
                -1.377928,54.9841821,0
                -1.3866661,54.9883269,0
                -1.4039302,54.9960418,0
                -1.4131321,55.0061184,0
                -1.4243172,55.0085164,0
                -1.4290945,55.0088631,0
                -1.429602,55.0123967,0
                -1.4164968,55.0138285,0
                -1.4134172,55.0167904,0
                -1.4175578,55.0234979,0
                -1.4303732,55.0404894,0
                -1.4450411,55.0491186,0
                -1.4508219,55.0577408,0
                -1.4544582,55.0597998,0
              </coordinates>
            </LinearRing>
          </outerBoundaryIs>
        </Polygon>
      </Placemark>
    </Folder>
    <Folder>
      <name>Metro Stops</name>
      <Placemark>
        <name>Gateshead</name>
        <styleUrl>#icon-1899-FFEA00-labelson-nodesc</styleUrl>
        <Point>
          <coordinates>
            -1.6041008,54.9618754,0
          </coordinates>
        </Point>
      </Placemark>
      <Placemark>
        <name>Gateshead Stadium</name>
        <styleUrl>#icon-1899-FFEA00-labelson-nodesc</styleUrl>
        <Point>
          <coordinates>
            -1.5884929,54.9577592,0
          </coordinates>
        </Point>
      </Placemark>
      <Placemark>
        <name>Felling</name>
        <styleUrl>#icon-1899-FFEA00-labelson-nodesc</styleUrl>
        <Point>
          <coordinates>
            -1.5718022,54.9531573,0
          </coordinates>
        </Point>
      </Placemark>
      <Placemark>
        <name>Heworth</name>
        <styleUrl>#icon-1899-FFEA00-labelson-nodesc</styleUrl>
        <Point>
          <coordinates>
            -1.5557003,54.9516235,0
          </coordinates>
        </Point>
      </Placemark>
      <Placemark>
        <name>Pelaw</name>
        <styleUrl>#icon-1899-FFEA00-labelson-nodesc</styleUrl>
        <Point>
          <coordinates>
            -1.5419949,54.9527115,0
          </coordinates>
        </Point>
      </Placemark>
      <Placemark>
        <name>Fellgate</name>
        <styleUrl>#icon-1899-FFEA00-labelson-nodesc</styleUrl>
        <Point>
          <coordinates>
            -1.4856581,54.9573687,0
          </coordinates>
        </Point>
      </Placemark>
      <Placemark>
        <name>Brockley Whins</name>
        <styleUrl>#icon-1899-FFEA00-labelson-nodesc</styleUrl>
        <Point>
          <coordinates>
            -1.460816,54.9595019,0
          </coordinates>
        </Point>
      </Placemark>
      <Placemark>
        <name>East Boldon</name>
        <styleUrl>#icon-1899-FFEA00-labelson-nodesc</styleUrl>
        <Point>
          <coordinates>
            -1.4202821,54.9464226,0
          </coordinates>
        </Point>
      </Placemark>
      <Placemark>
        <name>Seaburn</name>
        <styleUrl>#icon-1899-FFEA00-labelson-nodesc</styleUrl>
        <Point>
          <coordinates>
            -1.3863258,54.9292299,0
          </coordinates>
        </Point>
      </Placemark>
      <Placemark>
        <name>Stadium of Light</name>
        <styleUrl>#icon-1899-FFEA00-labelson-nodesc</styleUrl>
        <Point>
          <coordinates>
            -1.3829977,54.9181831,0
          </coordinates>
        </Point>
      </Placemark>
      <Placemark>
        <name>St Peters</name>
        <styleUrl>#icon-1899-FFEA00-labelson-nodesc</styleUrl>
        <Point>
          <coordinates>
            -1.3837214,54.9110745,0
          </coordinates>
        </Point>
      </Placemark>
      <Placemark>
        <name>Sunderland</name>
        <styleUrl>#icon-1899-FFEA00-labelson-nodesc</styleUrl>
        <Point>
          <coordinates>
            -1.38267,54.9066214,0
          </coordinates>
        </Point>
      </Placemark>
      <Placemark>
        <name>Park Lane</name>
        <styleUrl>#icon-1899-FFEA00-labelson-nodesc</styleUrl>
        <Point>
          <coordinates>
            -1.3843992,54.9023879,0
          </coordinates>
        </Point>
      </Placemark>
      <Placemark>
        <name>University</name>
        <styleUrl>#icon-1899-FFEA00-labelson-nodesc</styleUrl>
        <Point>
          <coordinates>
            -1.3922291,54.9028433,0
          </coordinates>
        </Point>
      </Placemark>
      <Placemark>
        <name>Millfield</name>
        <styleUrl>#icon-1899-FFEA00-labelson-nodesc</styleUrl>
        <Point>
          <coordinates>
            -1.4009553,54.906542,0
          </coordinates>
        </Point>
      </Placemark>
      <Placemark>
        <name>Pallion</name>
        <styleUrl>#icon-1899-FFEA00-labelson-nodesc</styleUrl>
        <Point>
          <coordinates>
            -1.4178066,54.9128335,0
          </coordinates>
        </Point>
      </Placemark>
      <Placemark>
        <name>South Hylton</name>
        <styleUrl>#icon-1899-FFEA00-labelson-nodesc</styleUrl>
        <Point>
          <coordinates>
            -1.4479361,54.9042211,0
          </coordinates>
        </Point>
      </Placemark>
      <Placemark>
        <name>Hebburn</name>
        <styleUrl>#icon-1899-FFEA00-labelson-nodesc</styleUrl>
        <Point>
          <coordinates>
            -1.520685,54.9756222,0
          </coordinates>
        </Point>
      </Placemark>
      <Placemark>
        <name>Jarrow</name>
        <styleUrl>#icon-1899-FFEA00-labelson-nodesc</styleUrl>
        <Point>
          <coordinates>
            -1.493687,54.9794628,0
          </coordinates>
        </Point>
      </Placemark>
      <Placemark>
        <name>Bede</name>
        <styleUrl>#icon-1899-FFEA00-labelson-nodesc</styleUrl>
        <Point>
          <coordinates>
            -1.4659974,54.9744868,0
          </coordinates>
        </Point>
      </Placemark>
      <Placemark>
        <name>Siomonside</name>
        <styleUrl>#icon-1899-FFEA00-labelson-nodesc</styleUrl>
        <Point>
          <coordinates>
            -1.4552686,54.971728,0
          </coordinates>
        </Point>
      </Placemark>
      <Placemark>
        <name>Tyne Dock</name>
        <styleUrl>#icon-1899-FFEA00-labelson-nodesc</styleUrl>
        <Point>
          <coordinates>
            -1.4416535,54.9761944,0
          </coordinates>
        </Point>
      </Placemark>
      <Placemark>
        <name>Chichester</name>
        <styleUrl>#icon-1899-FFEA00-labelson-nodesc</styleUrl>
        <Point>
          <coordinates>
            -1.4319615,54.9864165,0
          </coordinates>
        </Point>
      </Placemark>
      <Placemark>
        <name>South Shields</name>
        <styleUrl>#icon-1899-FFEA00-labelson-nodesc</styleUrl>
        <Point>
          <coordinates>
            -1.4329538,54.9974869,0
          </coordinates>
        </Point>
      </Placemark>
      <Placemark>
        <name>Point 27</name>
        <styleUrl>#icon-1899-FFEA00-labelson-nodesc</styleUrl>
        <Point>
          <coordinates>
            -1.6163513,54.9689958,0
          </coordinates>
        </Point>
      </Placemark>
      <Placemark>
        <name>Monument</name>
        <styleUrl>#icon-1899-FFEA00-labelson-nodesc</styleUrl>
        <Point>
          <coordinates>
            -1.612943,54.9738748,0
          </coordinates>
        </Point>
      </Placemark>
      <Placemark>
        <name>St. James</name>
        <styleUrl>#icon-1899-FFEA00-labelson-nodesc</styleUrl>
        <Point>
          <coordinates>
            -1.6210325,54.9743305,0
          </coordinates>
        </Point>
      </Placemark>
      <Placemark>
        <name>Manors</name>
        <styleUrl>#icon-1899-FFEA00-labelson-nodesc</styleUrl>
        <Point>
          <coordinates>
            -1.6047569,54.9739425,0
          </coordinates>
        </Point>
      </Placemark>
      <Placemark>
        <name>Haymarket</name>
        <styleUrl>#icon-1899-FFEA00-labelson-nodesc</styleUrl>
        <Point>
          <coordinates>
            -1.6139072,54.9775131,0
          </coordinates>
        </Point>
      </Placemark>
      <Placemark>
        <name>Byker</name>
        <styleUrl>#icon-1899-FFEA00-labelson-nodesc</styleUrl>
        <Point>
          <coordinates>
            -1.5797156,54.976194,0
          </coordinates>
        </Point>
      </Placemark>
      <Placemark>
        <name>Chillingham Road</name>
        <styleUrl>#icon-1899-FFEA00-labelson-nodesc</styleUrl>
        <Point>
          <coordinates>
            -1.5718152,54.9828911,0
          </coordinates>
        </Point>
      </Placemark>
      <Placemark>
        <name>Walkergate</name>
        <styleUrl>#icon-1899-FFEA00-labelson-nodesc</styleUrl>
        <Point>
          <coordinates>
            -1.5590913,54.9854619,0
          </coordinates>
        </Point>
      </Placemark>
      <Placemark>
        <name>Wallsend</name>
        <styleUrl>#icon-1899-FFEA00-labelson-nodesc</styleUrl>
        <Point>
          <coordinates>
            -1.5323747,54.9895727,0
          </coordinates>
        </Point>
      </Placemark>
      <Placemark>
        <name>Hadrian Road</name>
        <styleUrl>#icon-1899-FFEA00-labelson-nodesc</styleUrl>
        <Point>
          <coordinates>
            -1.5156543,54.9922407,0
          </coordinates>
        </Point>
      </Placemark>
      <Placemark>
        <name>Howdon</name>
        <styleUrl>#icon-1899-FFEA00-labelson-nodesc</styleUrl>
        <Point>
          <coordinates>
            -1.4941969,54.9958781,0
          </coordinates>
        </Point>
      </Placemark>
      <Placemark>
        <name>Percy Main</name>
        <styleUrl>#icon-1899-FFEA00-labelson-nodesc</styleUrl>
        <Point>
          <coordinates>
            -1.4742089,54.9995245,0
          </coordinates>
        </Point>
      </Placemark>
      <Placemark>
        <name>Meadow Well</name>
        <styleUrl>#icon-1899-FFEA00-labelson-nodesc</styleUrl>
        <Point>
          <coordinates>
            -1.4654467,55.0016733,0
          </coordinates>
        </Point>
      </Placemark>
      <Placemark>
        <name>North Shields</name>
        <styleUrl>#icon-1899-FFEA00-labelson-nodesc</styleUrl>
        <Point>
          <coordinates>
            -1.4483771,55.0085047,0
          </coordinates>
        </Point>
      </Placemark>
      <Placemark>
        <name>Tynemouth</name>
        <styleUrl>#icon-1899-FFEA00-labelson-nodesc</styleUrl>
        <Point>
          <coordinates>
            -1.4282851,55.0173494,0
          </coordinates>
        </Point>
      </Placemark>
      <Placemark>
        <name>Cullercoats</name>
        <styleUrl>#icon-1899-FFEA00-labelson-nodesc</styleUrl>
        <Point>
          <coordinates>
            -1.4362423,55.0351131,0
          </coordinates>
        </Point>
      </Placemark>
      <Placemark>
        <name>Whitley Bay</name>
        <styleUrl>#icon-1899-FFEA00-labelson-nodesc</styleUrl>
        <Point>
          <coordinates>
            -1.4428027,55.039892,0
          </coordinates>
        </Point>
      </Placemark>
      <Placemark>
        <name>Monkseaton</name>
        <styleUrl>#icon-1899-FFEA00-labelson-nodesc</styleUrl>
        <Point>
          <coordinates>
            -1.4580769,55.0423417,0
          </coordinates>
        </Point>
      </Placemark>
      <Placemark>
        <name>West Monkseaton</name>
        <styleUrl>#icon-1899-FFEA00-labelson-nodesc</styleUrl>
        <Point>
          <coordinates>
            -1.4767021,55.0403008,0
          </coordinates>
        </Point>
      </Placemark>
      <Placemark>
        <name>Shiremoor</name>
        <styleUrl>#icon-1899-FFEA00-labelson-nodesc</styleUrl>
        <Point>
          <coordinates>
            -1.504807,55.0369619,0
          </coordinates>
        </Point>
      </Placemark>
      <Placemark>
        <name>Northumberland Park</name>
        <styleUrl>#icon-1899-FFEA00-labelson-nodesc</styleUrl>
        <Point>
          <coordinates>
            -1.5194234,55.0331963,0
          </coordinates>
        </Point>
      </Placemark>
      <Placemark>
        <name>Palmersville</name>
        <styleUrl>#icon-1899-FFEA00-labelson-nodesc</styleUrl>
        <Point>
          <coordinates>
            -1.5407368,55.0238731,0
          </coordinates>
        </Point>
      </Placemark>
      <Placemark>
        <name>Benton</name>
        <styleUrl>#icon-1899-FFEA00-labelson-nodesc</styleUrl>
        <Point>
          <coordinates>
            -1.5677734,55.0138029,0
          </coordinates>
        </Point>
      </Placemark>
      <Placemark>
        <name>Four Lane Ends</name>
        <styleUrl>#icon-1899-FFEA00-labelson-nodesc</styleUrl>
        <Point>
          <coordinates>
            -1.5784816,55.0101822,0
          </coordinates>
        </Point>
      </Placemark>
      <Placemark>
        <name>Longbenton</name>
        <styleUrl>#icon-1899-FFEA00-labelson-nodesc</styleUrl>
        <Point>
          <coordinates>
            -1.5913603,55.0088991,0
          </coordinates>
        </Point>
      </Placemark>
      <Placemark>
        <name>South Gosforth</name>
        <styleUrl>#icon-1899-FFEA00-labelson-nodesc</styleUrl>
        <Point>
          <coordinates>
            -1.6080758,55.0061229,0
          </coordinates>
        </Point>
      </Placemark>
      <Placemark>
        <name>Regent Centre</name>
        <styleUrl>#icon-1899-FFEA00-labelson-nodesc</styleUrl>
        <Point>
          <coordinates>
            -1.6215032,55.0120019,0
          </coordinates>
        </Point>
      </Placemark>
      <Placemark>
        <name>Wansbeck Road</name>
        <styleUrl>#icon-1899-FFEA00-labelson-nodesc</styleUrl>
        <Point>
          <coordinates>
            -1.6349601,55.014109,0
          </coordinates>
        </Point>
      </Placemark>
      <Placemark>
        <name>Fawdon</name>
        <styleUrl>#icon-1899-FFEA00-labelson-nodesc</styleUrl>
        <Point>
          <coordinates>
            -1.6449316,55.0136467,0
          </coordinates>
        </Point>
      </Placemark>
      <Placemark>
        <name>Kingston Park</name>
        <styleUrl>#icon-1899-FFEA00-labelson-nodesc</styleUrl>
        <Point>
          <coordinates>
            -1.6651894,55.0143601,0
          </coordinates>
        </Point>
      </Placemark>
      <Placemark>
        <name>Bank Foot</name>
        <styleUrl>#icon-1899-FFEA00-labelson-nodesc</styleUrl>
        <Point>
          <coordinates>
            -1.6780364,55.0139367,0
          </coordinates>
        </Point>
      </Placemark>
      <Placemark>
        <name>Ilford Road</name>
        <styleUrl>#icon-1899-FFEA00-labelson-nodesc</styleUrl>
        <Point>
          <coordinates>
            -1.6109271,55.0001847,0
          </coordinates>
        </Point>
      </Placemark>
      <Placemark>
        <name>West Jesmond</name>
        <styleUrl>#icon-1899-FFEA00-labelson-nodesc</styleUrl>
        <Point>
          <coordinates>
            -1.6097801,54.9936551,0
          </coordinates>
        </Point>
      </Placemark>
      <Placemark>
        <name>Jesmond</name>
        <styleUrl>#icon-1899-FFEA00-labelson-nodesc</styleUrl>
        <Point>
          <coordinates>
            -1.6057359,54.9829099,0
          </coordinates>
        </Point>
      </Placemark>
      <Placemark>
        <name>North Shields Ferry</name>
        <styleUrl>#icon-1899-FFEA00-labelson-nodesc</styleUrl>
        <Point>
          <coordinates>
            -1.4445163,55.0038687,0
          </coordinates>
        </Point>
      </Placemark>
      <Placemark>
        <name>South Shields Ferry</name>
        <styleUrl>#icon-1899-FFEA00-labelson-nodesc</styleUrl>
        <Point>
          <coordinates>
            -1.4400919,54.997128,0
          </coordinates>
        </Point>
      </Placemark>
    </Folder>
    <Folder>
      <name>Bus stops</name>
      <Placemark>
        <name><![CDATA[Mariners' Lane]]></name>
        <styleUrl>#icon-1899-9C27B0-labelson-nodesc</styleUrl>
        <Point>
          <coordinates>
            -1.4347072,55.0180941,0
          </coordinates>
        </Point>
      </Placemark>
      <Placemark>
        <name><![CDATA[Fish Quay Fiddler's Green]]></name>
        <styleUrl>#icon-1899-9C27B0-labelson-nodesc</styleUrl>
        <Point>
          <coordinates>
            -1.4328697,55.0108633,0
          </coordinates>
        </Point>
      </Placemark>
      <Placemark>
        <name>Preston Road</name>
        <styleUrl>#icon-1899-9C27B0-labelson-nodesc</styleUrl>
        <Point>
          <coordinates>
            -1.4496049,55.0140434,0
          </coordinates>
        </Point>
      </Placemark>
      <Placemark>
        <name>Tyne Tunnel North</name>
        <styleUrl>#icon-1899-9C27B0-labelson-nodesc</styleUrl>
        <Point>
          <coordinates>
            -1.4875164,54.9901002,0
          </coordinates>
        </Point>
      </Placemark>
      <Placemark>
        <name>Royal Quays Retail Park</name>
        <styleUrl>#icon-1899-9C27B0-labelson-nodesc</styleUrl>
        <Point>
          <coordinates>
            -1.4650983,54.9963455,0
          </coordinates>
        </Point>
      </Placemark>
      <Placemark>
        <name>Dock Road</name>
        <styleUrl>#icon-1899-9C27B0-labelson-nodesc</styleUrl>
        <Point>
          <coordinates>
            -1.4517296,55.0016549,0
          </coordinates>
        </Point>
      </Placemark>
      <Placemark>
        <name>Coniston Road</name>
        <styleUrl>#icon-1899-9C27B0-labelson-nodesc</styleUrl>
        <Point>
          <coordinates>
            -1.4982551,55.0048239,0
          </coordinates>
        </Point>
      </Placemark>
      <Placemark>
        <name>Churchill Street</name>
        <styleUrl>#icon-1899-9C27B0-labelson-nodesc</styleUrl>
        <Point>
          <coordinates>
            -1.5040179,55.0004647,0
          </coordinates>
        </Point>
      </Placemark>
      <Placemark>
        <name><![CDATA[St Peter's Road]]></name>
        <styleUrl>#icon-1899-9C27B0-labelson-nodesc</styleUrl>
        <Point>
          <coordinates>
            -1.5189233,54.9984976,0
          </coordinates>
        </Point>
      </Placemark>
      <Placemark>
        <name>Queens Cresent</name>
        <styleUrl>#icon-1899-9C27B0-labelson-nodesc</styleUrl>
        <Point>
          <coordinates>
            -1.5389547,54.9958243,0
          </coordinates>
        </Point>
      </Placemark>
      <Placemark>
        <name>Marquis Ave</name>
        <styleUrl>#icon-1899-9C27B0-labelson-nodesc</styleUrl>
        <Point>
          <coordinates>
            -1.7171942,55.0040731,0
          </coordinates>
        </Point>
      </Placemark>
      <Placemark>
        <name>Hillhead Road</name>
        <styleUrl>#icon-1899-9C27B0-labelson-nodesc</styleUrl>
        <Point>
          <coordinates>
            -1.707628,54.9970837,0
          </coordinates>
        </Point>
      </Placemark>
      <Placemark>
        <name>Hillhead Parkway</name>
        <styleUrl>#icon-1899-9C27B0-labelson-nodesc</styleUrl>
        <Point>
          <coordinates>
            -1.7199162,54.9960398,0
          </coordinates>
        </Point>
      </Placemark>
      <Placemark>
        <name>West Donton Community Centre</name>
        <styleUrl>#icon-1899-9C27B0-labelson-nodesc</styleUrl>
        <Point>
          <coordinates>
            -1.7101908,54.9921755,0
          </coordinates>
        </Point>
      </Placemark>
      <Placemark>
        <name>Bedeburn Road</name>
        <styleUrl>#icon-1899-9C27B0-labelson-nodesc</styleUrl>
        <Point>
          <coordinates>
            -1.6906264,55.0090187,0
          </coordinates>
        </Point>
      </Placemark>
      <Placemark>
        <name>Newbiggin Lane</name>
        <styleUrl>#icon-1899-9C27B0-labelson-nodesc</styleUrl>
        <Point>
          <coordinates>
            -1.6944224,55.0007722,0
          </coordinates>
        </Point>
      </Placemark>
      <Placemark>
        <name>West Denton Way</name>
        <styleUrl>#icon-1899-9C27B0-labelson-nodesc</styleUrl>
        <Point>
          <coordinates>
            -1.6949412,54.9923245,0
          </coordinates>
        </Point>
      </Placemark>
      <Placemark>
        <name>Etal Lane</name>
        <styleUrl>#icon-1899-9C27B0-labelson-nodesc</styleUrl>
        <Point>
          <coordinates>
            -1.6794813,55.0009924,0
          </coordinates>
        </Point>
      </Placemark>
      <Placemark>
        <name>Tudor Way</name>
        <styleUrl>#icon-1899-9C27B0-labelson-nodesc</styleUrl>
        <Point>
          <coordinates>
            -1.6736914,55.0094394,0
          </coordinates>
        </Point>
      </Placemark>
      <Placemark>
        <name>Kingston Park Road</name>
        <styleUrl>#icon-1899-9C27B0-labelson-nodesc</styleUrl>
        <Point>
          <coordinates>
            -1.6603949,55.0211051,0
          </coordinates>
        </Point>
      </Placemark>
      <Placemark>
        <name>Kirkstone Ave</name>
        <styleUrl>#icon-1899-9C27B0-labelson-nodesc</styleUrl>
        <Point>
          <coordinates>
            -1.711026,54.9829273,0
          </coordinates>
        </Point>
      </Placemark>
      <Placemark>
        <name>Burnham</name>
        <styleUrl>#icon-1899-9C27B0-labelson-nodesc</styleUrl>
        <Point>
          <coordinates>
            -1.724733,54.9815274,0
          </coordinates>
        </Point>
      </Placemark>
      <Placemark>
        <name>Tyneview</name>
        <styleUrl>#icon-1899-9C27B0-labelson-nodesc</styleUrl>
        <Point>
          <coordinates>
            -1.7121398,54.9764515,0
          </coordinates>
        </Point>
      </Placemark>
      <Placemark>
        <name>Denton West Hadrian Wall</name>
        <styleUrl>#icon-1899-9C27B0-labelson-nodesc</styleUrl>
        <Point>
          <coordinates>
            -1.6982806,54.9859928,0
          </coordinates>
        </Point>
      </Placemark>
      <Placemark>
        <name>Dumpling Hall</name>
        <styleUrl>#icon-1899-9C27B0-labelson-nodesc</styleUrl>
        <Point>
          <coordinates>
            -1.7016425,54.9802048,0
          </coordinates>
        </Point>
      </Placemark>
      <Placemark>
        <name>Slatyford</name>
        <styleUrl>#icon-1899-9C27B0-labelson-nodesc</styleUrl>
        <Point>
          <coordinates>
            -1.6811867,54.9862186,0
          </coordinates>
        </Point>
      </Placemark>
      <Placemark>
        <name>Gragar Way</name>
        <styleUrl>#icon-1899-9C27B0-labelson-nodesc</styleUrl>
        <Point>
          <coordinates>
            -1.5458684,54.9039973,0
          </coordinates>
        </Point>
      </Placemark>
      <Placemark>
        <name>Whitehill Drive</name>
        <styleUrl>#icon-1899-9C27B0-labelson-nodesc</styleUrl>
        <Point>
          <coordinates>
            -1.5659168,54.9366953,0
          </coordinates>
        </Point>
      </Placemark>
      <Placemark>
        <name>Sunnyway</name>
        <styleUrl>#icon-1899-9C27B0-labelson-nodesc</styleUrl>
        <Point>
          <coordinates>
            -1.6691404,54.9967645,0
          </coordinates>
        </Point>
      </Placemark>
      <Placemark>
        <name>Whickham View</name>
        <styleUrl>#icon-1899-9C27B0-labelson-nodesc</styleUrl>
        <Point>
          <coordinates>
            -1.6834906,54.9753775,0
          </coordinates>
        </Point>
      </Placemark>
      <Placemark>
        <name>Two Ball Lonnen</name>
        <styleUrl>#icon-1899-9C27B0-labelson-nodesc</styleUrl>
        <Point>
          <coordinates>
            -1.6689462,54.9790127,0
          </coordinates>
        </Point>
      </Placemark>
      <Placemark>
        <name>Stamfordham Road</name>
        <styleUrl>#icon-1899-9C27B0-labelson-nodesc</styleUrl>
        <Point>
          <coordinates>
            -1.6671572,54.9896182,0
          </coordinates>
        </Point>
      </Placemark>
      <Placemark>
        <name>Fenham drive</name>
        <styleUrl>#icon-1899-9C27B0-labelson-nodesc</styleUrl>
        <Point>
          <coordinates>
            -1.6598341,54.9841569,0
          </coordinates>
        </Point>
      </Placemark>
      <Placemark>
        <name>Hillsview Ave</name>
        <styleUrl>#icon-1899-9C27B0-labelson-nodesc</styleUrl>
        <Point>
          <coordinates>
            -1.6564979,55.0070003,0
          </coordinates>
        </Point>
      </Placemark>
      <Placemark>
        <name>Millfield Ave</name>
        <styleUrl>#icon-1899-9C27B0-labelson-nodesc</styleUrl>
        <Point>
          <coordinates>
            -1.6520633,55.0003715,0
          </coordinates>
        </Point>
      </Placemark>
      <Placemark>
        <name>Hodgkin Park</name>
        <styleUrl>#icon-1899-9C27B0-labelson-nodesc</styleUrl>
        <Point>
          <coordinates>
            -1.6704639,54.9699487,0
          </coordinates>
        </Point>
      </Placemark>
      <Placemark>
        <name>Hoyle Ave</name>
        <styleUrl>#icon-1899-9C27B0-labelson-nodesc</styleUrl>
        <Point>
          <coordinates>
            -1.6566352,54.9761709,0
          </coordinates>
        </Point>
      </Placemark>
      <Placemark>
        <name><![CDATA[St John's]]></name>
        <styleUrl>#icon-1899-9C27B0-labelson-nodesc</styleUrl>
        <Point>
          <coordinates>
            -1.6541992,54.9682734,0
          </coordinates>
        </Point>
      </Placemark>
      <Placemark>
        <name>Studley Terrace</name>
        <styleUrl>#icon-1899-9C27B0-labelson-nodesc</styleUrl>
        <Point>
          <coordinates>
            -1.6424644,54.9799739,0
          </coordinates>
        </Point>
      </Placemark>
      <Placemark>
        <name>Moorside North</name>
        <styleUrl>#icon-1899-9C27B0-labelson-nodesc</styleUrl>
        <Point>
          <coordinates>
            -1.6474155,54.9842295,0
          </coordinates>
        </Point>
      </Placemark>
      <Placemark>
        <name>Great North Hotel</name>
        <styleUrl>#icon-1899-9C27B0-labelson-nodesc</styleUrl>
        <Point>
          <coordinates>
            -1.622074,55.019372,0
          </coordinates>
        </Point>
      </Placemark>
      <Placemark>
        <name>Acomb Cresent</name>
        <styleUrl>#icon-1899-9C27B0-labelson-nodesc</styleUrl>
        <Point>
          <coordinates>
            -1.6420157,55.0219993,0
          </coordinates>
        </Point>
      </Placemark>
      <Placemark>
        <name>Brunton Lane</name>
        <styleUrl>#icon-1899-9C27B0-labelson-nodesc</styleUrl>
        <Point>
          <coordinates>
            -1.6315961,55.0293484,0
          </coordinates>
        </Point>
      </Placemark>
      <Placemark>
        <name>Norwood Ave</name>
        <styleUrl>#icon-1899-9C27B0-labelson-nodesc</styleUrl>
        <Point>
          <coordinates>
            -1.621971,55.0264455,0
          </coordinates>
        </Point>
      </Placemark>
      <Placemark>
        <name>Ashburton Road</name>
        <styleUrl>#icon-1899-9C27B0-labelson-nodesc</styleUrl>
        <Point>
          <coordinates>
            -1.6352503,55.0033764,0
          </coordinates>
        </Point>
      </Placemark>
      <Placemark>
        <name>Kenton Road</name>
        <styleUrl>#icon-1899-9C27B0-labelson-nodesc</styleUrl>
        <Point>
          <coordinates>
            -1.6292862,54.9961547,0
          </coordinates>
        </Point>
      </Placemark>
      <Placemark>
        <name>Claremont Road</name>
        <styleUrl>#icon-1899-9C27B0-labelson-nodesc</styleUrl>
        <Point>
          <coordinates>
            -1.6185618,54.9822609,0
          </coordinates>
        </Point>
      </Placemark>
      <Placemark>
        <name><![CDATA[Hunter's Road]]></name>
        <styleUrl>#icon-1899-9C27B0-labelson-nodesc</styleUrl>
        <Point>
          <coordinates>
            -1.630753,54.983613,0
          </coordinates>
        </Point>
      </Placemark>
      <Placemark>
        <name>Dunholme Road</name>
        <styleUrl>#icon-1899-9C27B0-labelson-nodesc</styleUrl>
        <Point>
          <coordinates>
            -1.6445696,54.9741587,0
          </coordinates>
        </Point>
      </Placemark>
      <Placemark>
        <name>Westmoreland Road</name>
        <styleUrl>#icon-1899-9C27B0-labelson-nodesc</styleUrl>
        <Point>
          <coordinates>
            -1.6370196,54.9663027,0
          </coordinates>
        </Point>
      </Placemark>
      <Placemark>
        <name>Church Road</name>
        <styleUrl>#icon-1899-9C27B0-labelson-nodesc</styleUrl>
        <Point>
          <coordinates>
            -1.6178532,55.0072437,0
          </coordinates>
        </Point>
      </Placemark>
      <Placemark>
        <name><![CDATA[Salters' Lane]]></name>
        <styleUrl>#icon-1899-9C27B0-labelson-nodesc</styleUrl>
        <Point>
          <coordinates>
            -1.5995873,55.015559,0
          </coordinates>
        </Point>
      </Placemark>
      <Placemark>
        <name>Benton Lane</name>
        <styleUrl>#icon-1899-9C27B0-labelson-nodesc</styleUrl>
        <Point>
          <coordinates>
            -1.5836457,55.0154513,0
          </coordinates>
        </Point>
      </Placemark>
      <Placemark>
        <name>Quorum Business Park</name>
        <styleUrl>#icon-1899-9C27B0-labelson-nodesc</styleUrl>
        <Point>
          <coordinates>
            -1.5854043,55.02406,0
          </coordinates>
        </Point>
      </Placemark>
      <Placemark>
        <name>Briar Edge</name>
        <styleUrl>#icon-1899-9C27B0-labelson-nodesc</styleUrl>
        <Point>
          <coordinates>
            -1.5679628,55.0218753,0
          </coordinates>
        </Point>
      </Placemark>
      <Placemark>
        <name>Great Lime Road</name>
        <styleUrl>#icon-1899-9C27B0-labelson-nodesc</styleUrl>
        <Point>
          <coordinates>
            -1.5541272,55.025825,0
          </coordinates>
        </Point>
      </Placemark>
      <Placemark>
        <name>Belway Industrial</name>
        <styleUrl>#icon-1899-9C27B0-labelson-nodesc</styleUrl>
        <Point>
          <coordinates>
            -1.546555,55.0161131,0
          </coordinates>
        </Point>
      </Placemark>
      <Placemark>
        <name>Francis Way</name>
        <styleUrl>#icon-1899-9C27B0-labelson-nodesc</styleUrl>
        <Point>
          <coordinates>
            -1.5229186,55.0236603,0
          </coordinates>
        </Point>
      </Placemark>
      <Placemark>
        <name>Hotspur Road</name>
        <styleUrl>#icon-1899-9C27B0-labelson-nodesc</styleUrl>
        <Point>
          <coordinates>
            -1.5477766,55.0076476,0
          </coordinates>
        </Point>
      </Placemark>
      <Placemark>
        <name>Buckthorne Grove</name>
        <styleUrl>#icon-1899-9C27B0-labelson-nodesc</styleUrl>
        <Point>
          <coordinates>
            -1.5805293,54.9998364,0
          </coordinates>
        </Point>
      </Placemark>
      <Placemark>
        <name>Freeman Road</name>
        <styleUrl>#icon-1899-9C27B0-labelson-nodesc</styleUrl>
        <Point>
          <coordinates>
            -1.5936685,54.9981157,0
          </coordinates>
        </Point>
      </Placemark>
      <Placemark>
        <name>Coach Lane</name>
        <styleUrl>#icon-1899-9C27B0-labelson-nodesc</styleUrl>
        <Point>
          <coordinates>
            -1.5716388,55.0020721,0
          </coordinates>
        </Point>
      </Placemark>
      <Placemark>
        <name>Chillingham Road</name>
        <styleUrl>#icon-1899-9C27B0-labelson-nodesc</styleUrl>
        <Point>
          <coordinates>
            -1.5770538,54.9867346,0
          </coordinates>
        </Point>
      </Placemark>
      <Placemark>
        <name>Heaton Park Road</name>
        <styleUrl>#icon-1899-9C27B0-labelson-nodesc</styleUrl>
        <Point>
          <coordinates>
            -1.5873117,54.9808708,0
          </coordinates>
        </Point>
      </Placemark>
      <Placemark>
        <name>Portland Road</name>
        <styleUrl>#icon-1899-9C27B0-labelson-nodesc</styleUrl>
        <Point>
          <coordinates>
            -1.5996592,54.979235,0
          </coordinates>
        </Point>
      </Placemark>
      <Placemark>
        <name>Yetholm Road</name>
        <styleUrl>#icon-1899-9C27B0-labelson-nodesc</styleUrl>
        <Point>
          <coordinates>
            -1.6273499,54.9558221,0
          </coordinates>
        </Point>
      </Placemark>
      <Placemark>
        <name>Till Street</name>
        <styleUrl>#icon-1899-9C27B0-labelson-nodesc</styleUrl>
        <Point>
          <coordinates>
            -1.5733406,54.9683677,0
          </coordinates>
        </Point>
      </Placemark>
      <Placemark>
        <name>City Road</name>
        <styleUrl>#icon-1899-9C27B0-labelson-nodesc</styleUrl>
        <Point>
          <coordinates>
            -1.5939533,54.9719728,0
          </coordinates>
        </Point>
      </Placemark>
      <Placemark>
        <name>Welbeck Road</name>
        <styleUrl>#icon-1899-9C27B0-labelson-nodesc</styleUrl>
        <Point>
          <coordinates>
            -1.5520581,54.9754032,0
          </coordinates>
        </Point>
      </Placemark>
      <Placemark>
        <name>Merton Road</name>
        <styleUrl>#icon-1899-9C27B0-labelson-nodesc</styleUrl>
        <Point>
          <coordinates>
            -1.5498315,54.9656664,0
          </coordinates>
        </Point>
      </Placemark>
      <Placemark>
        <name>Waverdale Avenue</name>
        <styleUrl>#icon-1899-9C27B0-labelson-nodesc</styleUrl>
        <Point>
          <coordinates>
            -1.5421794,54.9808931,0
          </coordinates>
        </Point>
      </Placemark>
      <Placemark>
        <name>Preston North Road</name>
        <styleUrl>#icon-1899-9C27B0-labelson-nodesc</styleUrl>
        <Point>
          <coordinates>
            -1.4542841,55.0239426,0
          </coordinates>
        </Point>
      </Placemark>
      <Placemark>
        <name>Regency Gardens</name>
        <styleUrl>#icon-1899-9C27B0-labelson-nodesc</styleUrl>
        <Point>
          <coordinates>
            -1.4645722,55.014606,0
          </coordinates>
        </Point>
      </Placemark>
      <Placemark>
        <name>Billy Mill Lane</name>
        <styleUrl>#icon-1899-9C27B0-labelson-nodesc</styleUrl>
        <Point>
          <coordinates>
            -1.4769294,55.0196059,0
          </coordinates>
        </Point>
      </Placemark>
      <Placemark>
        <name>Monkseaton Drive</name>
        <styleUrl>#icon-1899-9C27B0-labelson-nodesc</styleUrl>
        <Point>
          <coordinates>
            -1.4693232,55.0486267,0
          </coordinates>
        </Point>
      </Placemark>
      <Placemark>
        <name>The Broadway</name>
        <styleUrl>#icon-1899-9C27B0-labelson-nodesc</styleUrl>
        <Point>
          <coordinates>
            -1.4378356,55.0287304,0
          </coordinates>
        </Point>
      </Placemark>
      <Placemark>
        <name>VIctoria Road West</name>
        <styleUrl>#icon-1899-9C27B0-labelson-nodesc</styleUrl>
        <Point>
          <coordinates>
            -1.5274104,54.9602128,0
          </coordinates>
        </Point>
      </Placemark>
      <Placemark>
        <name>Burn Heads Road</name>
        <styleUrl>#icon-1899-9C27B0-labelson-nodesc</styleUrl>
        <Point>
          <coordinates>
            -1.5236906,54.9664914,0
          </coordinates>
        </Point>
      </Placemark>
      <Placemark>
        <name>Stone Cellar Road</name>
        <styleUrl>#icon-1899-9C27B0-labelson-nodesc</styleUrl>
        <Point>
          <coordinates>
            -1.5206504,54.924664,0
          </coordinates>
        </Point>
      </Placemark>
      <Placemark>
        <name>Finchale Road</name>
        <styleUrl>#icon-1899-9C27B0-labelson-nodesc</styleUrl>
        <Point>
          <coordinates>
            -1.5084271,54.9659922,0
          </coordinates>
        </Point>
      </Placemark>
      <Placemark>
        <name>Argyle Street</name>
        <styleUrl>#icon-1899-9C27B0-labelson-nodesc</styleUrl>
        <Point>
          <coordinates>
            -1.5111728,54.9812382,0
          </coordinates>
        </Point>
      </Placemark>
      <Placemark>
        <name>Bede Burn Road</name>
        <styleUrl>#icon-1899-9C27B0-labelson-nodesc</styleUrl>
        <Point>
          <coordinates>
            -1.4926305,54.9719209,0
          </coordinates>
        </Point>
      </Placemark>
      <Placemark>
        <name>York Avenue</name>
        <styleUrl>#icon-1899-9C27B0-labelson-nodesc</styleUrl>
        <Point>
          <coordinates>
            -1.4914027,54.9627619,0
          </coordinates>
        </Point>
      </Placemark>
      <Placemark>
        <name>Leam Lane</name>
        <styleUrl>#icon-1899-9C27B0-labelson-nodesc</styleUrl>
        <Point>
          <coordinates>
            -1.475609,54.9648139,0
          </coordinates>
        </Point>
      </Placemark>
      <Placemark>
        <name>Hedworth Lane</name>
        <styleUrl>#icon-1899-9C27B0-labelson-nodesc</styleUrl>
        <Point>
          <coordinates>
            -1.4710007,54.9534545,0
          </coordinates>
        </Point>
      </Placemark>
      <Placemark>
        <name>Finchale Road</name>
        <styleUrl>#icon-1899-9C27B0-labelson-nodesc</styleUrl>
        <Point>
          <coordinates>
            -1.5152484,54.9596346,0
          </coordinates>
        </Point>
      </Placemark>
      <Placemark>
        <name>Victoria Road</name>
        <styleUrl>#icon-1899-9C27B0-labelson-nodesc</styleUrl>
        <Point>
          <coordinates>
            -1.5064203,54.9750518,0
          </coordinates>
        </Point>
      </Placemark>
      <Placemark>
        <name>Priory Road</name>
        <styleUrl>#icon-1899-9C27B0-labelson-nodesc</styleUrl>
        <Point>
          <coordinates>
            -1.4833317,54.9841818,0
          </coordinates>
        </Point>
      </Placemark>
      <Placemark>
        <name>Hill Park</name>
        <styleUrl>#icon-1899-9C27B0-labelson-nodesc</styleUrl>
        <Point>
          <coordinates>
            -1.4831124,54.9721717,0
          </coordinates>
        </Point>
      </Placemark>
      <Placemark>
        <name>Highfield Road</name>
        <styleUrl>#icon-1899-9C27B0-labelson-nodesc</styleUrl>
        <Point>
          <coordinates>
            -1.412221,54.9876708,0
          </coordinates>
        </Point>
      </Placemark>
      <Placemark>
        <name>Blagdon Avenue</name>
        <styleUrl>#icon-1899-9C27B0-labelson-nodesc</styleUrl>
        <Point>
          <coordinates>
            -1.4209082,54.9838506,0
          </coordinates>
        </Point>
      </Placemark>
      <Placemark>
        <name>John Reid Road</name>
        <styleUrl>#icon-1899-9C27B0-labelson-nodesc</styleUrl>
        <Point>
          <coordinates>
            -1.4540588,54.9643369,0
          </coordinates>
        </Point>
      </Placemark>
      <Placemark>
        <name>King George Road</name>
        <styleUrl>#icon-1899-9C27B0-labelson-nodesc</styleUrl>
        <Point>
          <coordinates>
            -1.4171772,54.973683,0
          </coordinates>
        </Point>
      </Placemark>
      <Placemark>
        <name>Marsden Road</name>
        <styleUrl>#icon-1899-9C27B0-labelson-nodesc</styleUrl>
        <Point>
          <coordinates>
            -1.4020681,54.9808654,0
          </coordinates>
        </Point>
      </Placemark>
      <Placemark>
        <name>Wealcroft</name>
        <styleUrl>#icon-1899-9C27B0-labelson-nodesc</styleUrl>
        <Point>
          <coordinates>
            -1.552117,54.9364461,0
          </coordinates>
        </Point>
      </Placemark>
      <Placemark>
        <name>The Ridgeway</name>
        <styleUrl>#icon-1899-9C27B0-labelson-nodesc</styleUrl>
        <Point>
          <coordinates>
            -1.4076973,54.9647037,0
          </coordinates>
        </Point>
      </Placemark>
      <Placemark>
        <name>Boker Lane</name>
        <styleUrl>#icon-1899-9C27B0-labelson-nodesc</styleUrl>
        <Point>
          <coordinates>
            -1.4392995,54.9457821,0
          </coordinates>
        </Point>
      </Placemark>
      <Placemark>
        <name>Windermere</name>
        <styleUrl>#icon-1899-9C27B0-labelson-nodesc</styleUrl>
        <Point>
          <coordinates>
            -1.4030045,54.9541954,0
          </coordinates>
        </Point>
      </Placemark>
      <Placemark>
        <name>Larch Avenue</name>
        <styleUrl>#icon-1899-9C27B0-labelson-nodesc</styleUrl>
        <Point>
          <coordinates>
            -1.4016041,54.9729811,0
          </coordinates>
        </Point>
      </Placemark>
      <Placemark>
        <name>Valley Lane</name>
        <styleUrl>#icon-1899-9C27B0-labelson-nodesc</styleUrl>
        <Point>
          <coordinates>
            -1.3892062,54.975567,0
          </coordinates>
        </Point>
      </Placemark>
      <Placemark>
        <name>Marsden Grotto</name>
        <styleUrl>#icon-1899-9C27B0-labelson-nodesc</styleUrl>
        <Point>
          <coordinates>
            -1.3776223,54.9765001,0
          </coordinates>
        </Point>
      </Placemark>
      <Placemark>
        <name>Whitburn North</name>
        <styleUrl>#icon-1899-9C27B0-labelson-nodesc</styleUrl>
        <Point>
          <coordinates>
            -1.3662113,54.9625385,0
          </coordinates>
        </Point>
      </Placemark>
      <Placemark>
        <name>Range View</name>
        <styleUrl>#icon-1899-9C27B0-labelson-nodesc</styleUrl>
        <Point>
          <coordinates>
            -1.3646603,54.9549992,0
          </coordinates>
        </Point>
      </Placemark>
      <Placemark>
        <name>Whithburn South</name>
        <styleUrl>#icon-1899-9C27B0-labelson-nodesc</styleUrl>
        <Point>
          <coordinates>
            -1.3645456,54.9477123,0
          </coordinates>
        </Point>
      </Placemark>
      <Placemark>
        <name>Seaburn Beach</name>
        <styleUrl>#icon-1899-9C27B0-labelson-nodesc</styleUrl>
        <Point>
          <coordinates>
            -1.3688041,54.9367024,0
          </coordinates>
        </Point>
      </Placemark>
      <Placemark>
        <name>Dovedale Road</name>
        <styleUrl>#icon-1899-9C27B0-labelson-nodesc</styleUrl>
        <Point>
          <coordinates>
            -1.3908147,54.9360307,0
          </coordinates>
        </Point>
      </Placemark>
      <Placemark>
        <name>Partway</name>
        <styleUrl>#icon-1899-9C27B0-labelson-nodesc</styleUrl>
        <Point>
          <coordinates>
            -1.5203556,54.8932504,0
          </coordinates>
        </Point>
      </Placemark>
      <Placemark>
        <name>Washington Park</name>
        <styleUrl>#icon-1899-9C27B0-labelson-nodesc</styleUrl>
        <Point>
          <coordinates>
            -1.517593,54.9002089,0
          </coordinates>
        </Point>
      </Placemark>
      <Placemark>
        <name>Horsley Road</name>
        <styleUrl>#icon-1899-9C27B0-labelson-nodesc</styleUrl>
        <Point>
          <coordinates>
            -1.5036334,54.8978997,0
          </coordinates>
        </Point>
      </Placemark>
      <Placemark>
        <name>Nevinson Avenue</name>
        <styleUrl>#icon-1899-9C27B0-labelson-nodesc</styleUrl>
        <Point>
          <coordinates>
            -1.4225095,54.9640952,0
          </coordinates>
        </Point>
      </Placemark>
      <Placemark>
        <name>Ringway</name>
        <styleUrl>#icon-1899-9C27B0-labelson-nodesc</styleUrl>
        <Point>
          <coordinates>
            -1.4555677,54.9145348,0
          </coordinates>
        </Point>
      </Placemark>
      <Placemark>
        <name>Hylton Riverside</name>
        <styleUrl>#icon-1899-9C27B0-labelson-nodesc</styleUrl>
        <Point>
          <coordinates>
            -1.432702,54.9169302,0
          </coordinates>
        </Point>
      </Placemark>
      <Placemark>
        <name>Sunderland Hospital</name>
        <styleUrl>#icon-1899-9C27B0-labelson-nodesc</styleUrl>
        <Point>
          <coordinates>
            -1.4109627,54.9043155,0
          </coordinates>
        </Point>
      </Placemark>
      <Placemark>
        <name>Chester Road</name>
        <styleUrl>#icon-1899-9C27B0-labelson-nodesc</styleUrl>
        <Point>
          <coordinates>
            -1.418206,54.8978504,0
          </coordinates>
        </Point>
      </Placemark>
      <Placemark>
        <name>Fordfield Road</name>
        <styleUrl>#icon-1899-9C27B0-labelson-nodesc</styleUrl>
        <Point>
          <coordinates>
            -1.4290008,54.9043991,0
          </coordinates>
        </Point>
      </Placemark>
      <Placemark>
        <name>Portsmouth Road</name>
        <styleUrl>#icon-1899-9C27B0-labelson-nodesc</styleUrl>
        <Point>
          <coordinates>
            -1.441692,54.8999109,0
          </coordinates>
        </Point>
      </Placemark>
      <Placemark>
        <name>Grindon Lane</name>
        <styleUrl>#icon-1899-9C27B0-labelson-nodesc</styleUrl>
        <Point>
          <coordinates>
            -1.4307124,54.8890909,0
          </coordinates>
        </Point>
      </Placemark>
      <Placemark>
        <name>White House Road</name>
        <styleUrl>#icon-1899-9C27B0-labelson-nodesc</styleUrl>
        <Point>
          <coordinates>
            -1.3704667,54.9017956,0
          </coordinates>
        </Point>
      </Placemark>
      <Placemark>
        <name>Prospect Row</name>
        <styleUrl>#icon-1899-9C27B0-labelson-nodesc</styleUrl>
        <Point>
          <coordinates>
            -1.3668056,54.9090694,0
          </coordinates>
        </Point>
      </Placemark>
      <Placemark>
        <name>National Glass centre</name>
        <styleUrl>#icon-1899-9C27B0-labelson-nodesc</styleUrl>
        <Point>
          <coordinates>
            -1.37374,54.9134022,0
          </coordinates>
        </Point>
      </Placemark>
      <Placemark>
        <name>Habour View</name>
        <styleUrl>#icon-1899-9C27B0-labelson-nodesc</styleUrl>
        <Point>
          <coordinates>
            -1.3677189,54.9207243,0
          </coordinates>
        </Point>
      </Placemark>
      <Placemark>
        <name>Peareth Road</name>
        <styleUrl>#icon-1899-9C27B0-labelson-nodesc</styleUrl>
        <Point>
          <coordinates>
            -1.3675385,54.9286943,0
          </coordinates>
        </Point>
      </Placemark>
      <Placemark>
        <name>Emsworth Road</name>
        <styleUrl>#icon-1899-9C27B0-labelson-nodesc</styleUrl>
        <Point>
          <coordinates>
            -1.3990034,54.9266296,0
          </coordinates>
        </Point>
      </Placemark>
      <Placemark>
        <name>Seatonville</name>
        <styleUrl>#icon-1899-9C27B0-labelson-nodesc</styleUrl>
        <Point>
          <coordinates>
            -1.4646595,55.0333166,0
          </coordinates>
        </Point>
      </Placemark>
      <Placemark>
        <name>IKEA</name>
        <styleUrl>#icon-1899-9C27B0-labelson-nodesc</styleUrl>
        <Point>
          <coordinates>
            -1.6785727,54.9606699,0
          </coordinates>
        </Point>
      </Placemark>
      <Placemark>
        <name><![CDATA[Coach & Horses]]></name>
        <styleUrl>#icon-1899-9C27B0-labelson-nodesc</styleUrl>
        <Point>
          <coordinates>
            -1.5794039,54.9071239,0
          </coordinates>
        </Point>
      </Placemark>
      <Placemark>
        <name>Cradlewell</name>
        <styleUrl>#icon-1899-9C27B0-labelson-nodesc</styleUrl>
        <Point>
          <coordinates>
            -1.5944823,54.9867935,0
          </coordinates>
        </Point>
      </Placemark>
      <Placemark>
        <name>Corner House</name>
        <styleUrl>#icon-1899-9C27B0-labelson-nodesc</styleUrl>
        <Point>
          <coordinates>
            -1.5835929,54.9913566,0
          </coordinates>
        </Point>
      </Placemark>
      <Placemark>
        <name>Red Hall Drive</name>
        <styleUrl>#icon-1899-9C27B0-labelson-nodesc</styleUrl>
        <Point>
          <coordinates>
            -1.5663008,54.9946266,0
          </coordinates>
        </Point>
      </Placemark>
      <Placemark>
        <name>Chicken Road</name>
        <styleUrl>#icon-1899-9C27B0-labelson-nodesc</styleUrl>
        <Point>
          <coordinates>
            -1.5451215,55.0007176,0
          </coordinates>
        </Point>
      </Placemark>
      <Placemark>
        <name>Rae Ave</name>
        <styleUrl>#icon-1899-9C27B0-labelson-nodesc</styleUrl>
        <Point>
          <coordinates>
            -1.5353454,55.0047144,0
          </coordinates>
        </Point>
      </Placemark>
      <Placemark>
        <name>Coast Way</name>
        <styleUrl>#icon-1899-9C27B0-labelson-nodesc</styleUrl>
        <Point>
          <coordinates>
            -1.5196451,55.0054955,0
          </coordinates>
        </Point>
      </Placemark>
      <Placemark>
        <name>Addington Drive</name>
        <styleUrl>#icon-1899-9C27B0-labelson-nodesc</styleUrl>
        <Point>
          <coordinates>
            -1.5198093,55.0160049,0
          </coordinates>
        </Point>
      </Placemark>
      <Placemark>
        <name>Middle Engine Police</name>
        <styleUrl>#icon-1899-9C27B0-labelson-nodesc</styleUrl>
        <Point>
          <coordinates>
            -1.5039949,55.0106546,0
          </coordinates>
        </Point>
      </Placemark>
      <Placemark>
        <name>Eldson Street</name>
        <styleUrl>#icon-1899-9C27B0-labelson-nodesc</styleUrl>
        <Point>
          <coordinates>
            -1.4549422,55.0041786,0
          </coordinates>
        </Point>
      </Placemark>
      <Placemark>
        <name>Central Avenue</name>
        <styleUrl>#icon-1899-9C27B0-labelson-nodesc</styleUrl>
        <Point>
          <coordinates>
            -1.468335,55.0088511,0
          </coordinates>
        </Point>
      </Placemark>
      <Placemark>
        <name>Norham Road Tesco</name>
        <styleUrl>#icon-1899-9C27B0-labelson-nodesc</styleUrl>
        <Point>
          <coordinates>
            -1.4815636,55.01162,0
          </coordinates>
        </Point>
      </Placemark>
      <Placemark>
        <name>Links Briar Dene</name>
        <styleUrl>#icon-1899-9C27B0-labelson-nodesc</styleUrl>
        <Point>
          <coordinates>
            -1.4533657,55.0553773,0
          </coordinates>
        </Point>
      </Placemark>
      <Placemark>
        <name>Stephenson Museum</name>
        <styleUrl>#icon-1899-9C27B0-labelson-nodesc</styleUrl>
        <Point>
          <coordinates>
            -1.4982167,55.0162391,0
          </coordinates>
        </Point>
      </Placemark>
      <Placemark>
        <name>Bakewell</name>
        <styleUrl>#icon-1899-9C27B0-labelson-nodesc</styleUrl>
        <Point>
          <coordinates>
            -1.4877789,55.0190209,0
          </coordinates>
        </Point>
      </Placemark>
      <Placemark>
        <name>Cobalt Park EE</name>
        <styleUrl>#icon-1899-9C27B0-labelson-nodesc</styleUrl>
        <Point>
          <coordinates>
            -1.511361,55.0211434,0
          </coordinates>
        </Point>
      </Placemark>
      <Placemark>
        <name>New York - Park Lane</name>
        <styleUrl>#icon-1899-9C27B0-labelson-nodesc</styleUrl>
        <Point>
          <coordinates>
            -1.5050668,55.0275576,0
          </coordinates>
        </Point>
      </Placemark>
      <Placemark>
        <name>New York</name>
        <styleUrl>#icon-1899-9C27B0-labelson-nodesc</styleUrl>
        <Point>
          <coordinates>
            -1.4877059,55.0250363,0
          </coordinates>
        </Point>
      </Placemark>
      <Placemark>
        <name>Barnstaple Road</name>
        <styleUrl>#icon-1899-9C27B0-labelson-nodesc</styleUrl>
        <Point>
          <coordinates>
            -1.4747713,55.0252988,0
          </coordinates>
        </Point>
      </Placemark>
      <Placemark>
        <name>Cotswold Road</name>
        <styleUrl>#icon-1899-9C27B0-labelson-nodesc</styleUrl>
        <Point>
          <coordinates>
            -1.4634214,55.0286245,0
          </coordinates>
        </Point>
      </Placemark>
      <Placemark>
        <name>Whitley Bay Ice Rink</name>
        <styleUrl>#icon-1899-9C27B0-labelson-nodesc</styleUrl>
        <Point>
          <coordinates>
            -1.4556658,55.0360485,0
          </coordinates>
        </Point>
      </Placemark>
      <Placemark>
        <name>Bournemouth Gardens</name>
        <styleUrl>#icon-1899-9C27B0-labelson-nodesc</styleUrl>
        <Point>
          <coordinates>
            -1.4500495,55.0489737,0
          </coordinates>
        </Point>
      </Placemark>
      <Placemark>
        <name>Norfolk Road</name>
        <styleUrl>#icon-1899-9C27B0-labelson-nodesc</styleUrl>
        <Point>
          <coordinates>
            -1.3887424,54.9827283,0
          </coordinates>
        </Point>
      </Placemark>
      <Placemark>
        <name>Cheviot Road</name>
        <styleUrl>#icon-1899-9C27B0-labelson-nodesc</styleUrl>
        <Point>
          <coordinates>
            -1.402411,54.9880745,0
          </coordinates>
        </Point>
      </Placemark>
      <Placemark>
        <name>New Crown</name>
        <styleUrl>#icon-1899-9C27B0-labelson-nodesc</styleUrl>
        <Point>
          <coordinates>
            -1.411135,54.9938455,0
          </coordinates>
        </Point>
      </Placemark>
      <Placemark>
        <name>Bents Park</name>
        <styleUrl>#icon-1899-9C27B0-labelson-nodesc</styleUrl>
        <Point>
          <coordinates>
            -1.4161459,55.0000682,0
          </coordinates>
        </Point>
      </Placemark>
      <Placemark>
        <name>Harbour Drive North</name>
        <styleUrl>#icon-1899-9C27B0-labelson-nodesc</styleUrl>
        <Point>
          <coordinates>
            -1.42493,55.0045255,0
          </coordinates>
        </Point>
      </Placemark>
      <Placemark>
        <name>Clasper Court</name>
        <styleUrl>#icon-1899-9C27B0-labelson-nodesc</styleUrl>
        <Point>
          <coordinates>
            -1.4349554,55.0019959,0
          </coordinates>
        </Point>
      </Placemark>
      <Placemark>
        <name>Westoe Road</name>
        <styleUrl>#icon-1899-9C27B0-labelson-nodesc</styleUrl>
        <Point>
          <coordinates>
            -1.4285612,54.9926342,0
          </coordinates>
        </Point>
      </Placemark>
      <Placemark>
        <name>Stanhope Road</name>
        <styleUrl>#icon-1899-9C27B0-labelson-nodesc</styleUrl>
        <Point>
          <coordinates>
            -1.4315131,54.9800486,0
          </coordinates>
        </Point>
      </Placemark>
      <Placemark>
        <name>Harton Lane</name>
        <styleUrl>#icon-1899-9C27B0-labelson-nodesc</styleUrl>
        <Point>
          <coordinates>
            -1.4396407,54.9712389,0
          </coordinates>
        </Point>
      </Placemark>
      <Placemark>
        <name><![CDATA[Petet Johnson's]]></name>
        <styleUrl>#icon-1899-9C27B0-labelson-nodesc</styleUrl>
        <Point>
          <coordinates>
            -1.4343519,54.9639691,0
          </coordinates>
        </Point>
      </Placemark>
      <Placemark>
        <name>Heaton Gardens</name>
        <styleUrl>#icon-1899-9C27B0-labelson-nodesc</styleUrl>
        <Point>
          <coordinates>
            -1.4370143,54.9557081,0
          </coordinates>
        </Point>
      </Placemark>
      <Placemark>
        <name>Ernest Street</name>
        <styleUrl>#icon-1899-9C27B0-labelson-nodesc</styleUrl>
        <Point>
          <coordinates>
            -1.4543982,54.9499731,0
          </coordinates>
        </Point>
      </Placemark>
      <Placemark>
        <name>Addison Road</name>
        <styleUrl>#icon-1899-9C27B0-labelson-nodesc</styleUrl>
        <Point>
          <coordinates>
            -1.4565124,54.9423727,0
          </coordinates>
        </Point>
      </Placemark>
      <Placemark>
        <name>Northumberland Way</name>
        <styleUrl>#icon-1899-9C27B0-labelson-nodesc</styleUrl>
        <Point>
          <coordinates>
            -1.5170032,54.9152503,0
          </coordinates>
        </Point>
      </Placemark>
      <Placemark>
        <name>Albany Way</name>
        <styleUrl>#icon-1899-9C27B0-labelson-nodesc</styleUrl>
        <Point>
          <coordinates>
            -1.5302916,54.9129464,0
          </coordinates>
        </Point>
      </Placemark>
      <Placemark>
        <name>Washington Galleries</name>
        <styleUrl>#icon-1899-9C27B0-labelson-nodesc</styleUrl>
        <Point>
          <coordinates>
            -1.5338857,54.8993745,0
          </coordinates>
        </Point>
      </Placemark>
      <Placemark>
        <name>Malvern Road</name>
        <styleUrl>#icon-1899-9C27B0-labelson-nodesc</styleUrl>
        <Point>
          <coordinates>
            -1.5374096,54.8930719,0
          </coordinates>
        </Point>
      </Placemark>
      <Placemark>
        <name>Ayton Road</name>
        <styleUrl>#icon-1899-9C27B0-labelson-nodesc</styleUrl>
        <Point>
          <coordinates>
            -1.553047,54.8964851,0
          </coordinates>
        </Point>
      </Placemark>
      <Placemark>
        <name>Dunnok Drive</name>
        <styleUrl>#icon-1899-9C27B0-labelson-nodesc</styleUrl>
        <Point>
          <coordinates>
            -1.5510411,54.8877805,0
          </coordinates>
        </Point>
      </Placemark>
      <Placemark>
        <name>Portobello</name>
        <styleUrl>#icon-1899-9C27B0-labelson-nodesc</styleUrl>
        <Point>
          <coordinates>
            -1.5651782,54.8936897,0
          </coordinates>
        </Point>
      </Placemark>
      <Placemark>
        <name>Mount Pleasent</name>
        <styleUrl>#icon-1899-9C27B0-labelson-nodesc</styleUrl>
        <Point>
          <coordinates>
            -1.565193,54.9010973,0
          </coordinates>
        </Point>
      </Placemark>
      <Placemark>
        <name>Foxpond</name>
        <styleUrl>#icon-1899-9C27B0-labelson-nodesc</styleUrl>
        <Point>
          <coordinates>
            -1.5598465,54.9077357,0
          </coordinates>
        </Point>
      </Placemark>
      <Placemark>
        <name>Lambton Arms</name>
        <styleUrl>#icon-1899-9C27B0-labelson-nodesc</styleUrl>
        <Point>
          <coordinates>
            -1.5649563,54.9153599,0
          </coordinates>
        </Point>
      </Placemark>
      <Placemark>
        <name>Harlow Green</name>
        <styleUrl>#icon-1899-9C27B0-labelson-nodesc</styleUrl>
        <Point>
          <coordinates>
            -1.5821314,54.9229474,0
          </coordinates>
        </Point>
      </Placemark>
      <Placemark>
        <name>Carley Square</name>
        <styleUrl>#icon-1899-9C27B0-labelson-nodesc</styleUrl>
        <Point>
          <coordinates>
            -1.3947076,54.9191095,0
          </coordinates>
        </Point>
      </Placemark>
      <Placemark>
        <name>Ashwood Avenue</name>
        <styleUrl>#icon-1899-9C27B0-labelson-nodesc</styleUrl>
        <Point>
          <coordinates>
            -1.4105054,54.9220432,0
          </coordinates>
        </Point>
      </Placemark>
      <Placemark>
        <name>Wear View</name>
        <styleUrl>#icon-1899-9C27B0-labelson-nodesc</styleUrl>
        <Point>
          <coordinates>
            -1.431694,54.9221254,0
          </coordinates>
        </Point>
      </Placemark>
      <Placemark>
        <name>Hylton Castle</name>
        <styleUrl>#icon-1899-9C27B0-labelson-nodesc</styleUrl>
        <Point>
          <coordinates>
            -1.4442681,54.9236903,0
          </coordinates>
        </Point>
      </Placemark>
      <Placemark>
        <name>Ferryboat Lane</name>
        <styleUrl>#icon-1899-9C27B0-labelson-nodesc</styleUrl>
        <Point>
          <coordinates>
            -1.4599146,54.9259011,0
          </coordinates>
        </Point>
      </Placemark>
      <Placemark>
        <name>Nissan Uk Factory</name>
        <styleUrl>#icon-1899-9C27B0-labelson-nodesc</styleUrl>
        <Point>
          <coordinates>
            -1.4745384,54.9229582,0
          </coordinates>
        </Point>
      </Placemark>
      <Placemark>
        <name>Cherry Blossom Way</name>
        <styleUrl>#icon-1899-9C27B0-labelson-nodesc</styleUrl>
        <Point>
          <coordinates>
            -1.4881141,54.9176462,0
          </coordinates>
        </Point>
      </Placemark>
      <Placemark>
        <name>Barmstone Way</name>
        <styleUrl>#icon-1899-9C27B0-labelson-nodesc</styleUrl>
        <Point>
          <coordinates>
            -1.5035472,54.9055306,0
          </coordinates>
        </Point>
      </Placemark>
      <Placemark>
        <name>Valley Drive</name>
        <styleUrl>#icon-1899-9C27B0-labelson-nodesc</styleUrl>
        <Point>
          <coordinates>
            -1.5923741,54.9475453,0
          </coordinates>
        </Point>
      </Placemark>
      <Placemark>
        <name>Gladstone Terrace</name>
        <styleUrl>#icon-1899-9C27B0-labelson-nodesc</styleUrl>
        <Point>
          <coordinates>
            -1.5058389,54.9134511,0
          </coordinates>
        </Point>
      </Placemark>
      <Placemark>
        <name>Peareth Hall Road</name>
        <styleUrl>#icon-1899-9C27B0-labelson-nodesc</styleUrl>
        <Point>
          <coordinates>
            -1.5356023,54.920191,0
          </coordinates>
        </Point>
      </Placemark>
      <Placemark>
        <name>Springwell Village School</name>
        <styleUrl>#icon-1899-9C27B0-labelson-nodesc</styleUrl>
        <Point>
          <coordinates>
            -1.5521593,54.9179081,0
          </coordinates>
        </Point>
      </Placemark>
      <Placemark>
        <name>Springwell Terrace</name>
        <styleUrl>#icon-1899-9C27B0-labelson-nodesc</styleUrl>
        <Point>
          <coordinates>
            -1.5635341,54.9277976,0
          </coordinates>
        </Point>
      </Placemark>
      <Placemark>
        <name>Wrekenton High Street</name>
        <styleUrl>#icon-1899-9C27B0-labelson-nodesc</styleUrl>
        <Point>
          <coordinates>
            -1.5750642,54.9251481,0
          </coordinates>
        </Point>
      </Placemark>
      <Placemark>
        <name>Coatsworth Road</name>
        <styleUrl>#icon-1899-9C27B0-labelson-nodesc</styleUrl>
        <Point>
          <coordinates>
            -1.6107873,54.9581579,0
          </coordinates>
        </Point>
      </Placemark>
      <Placemark>
        <name>Gateshead College</name>
        <styleUrl>#icon-1899-9C27B0-labelson-nodesc</styleUrl>
        <Point>
          <coordinates>
            -1.59831,54.966926,0
          </coordinates>
        </Point>
      </Placemark>
      <Placemark>
        <name>Saltmeadows Industrial Estate</name>
        <styleUrl>#icon-1899-9C27B0-labelson-nodesc</styleUrl>
        <Point>
          <coordinates>
            -1.5851631,54.9648722,0
          </coordinates>
        </Point>
      </Placemark>
      <Placemark>
        <name>Eastwood Gardens</name>
        <styleUrl>#icon-1899-9C27B0-labelson-nodesc</styleUrl>
        <Point>
          <coordinates>
            -1.5781669,54.9564063,0
          </coordinates>
        </Point>
      </Placemark>
      <Placemark>
        <name>The Burn</name>
        <styleUrl>#icon-1899-9C27B0-labelson-nodesc</styleUrl>
        <Point>
          <coordinates>
            -1.5554761,54.9481451,0
          </coordinates>
        </Point>
      </Placemark>
      <Placemark>
        <name>Felling Square</name>
        <styleUrl>#icon-1899-9C27B0-labelson-nodesc</styleUrl>
        <Point>
          <coordinates>
            -1.5694169,54.9488612,0
          </coordinates>
        </Point>
      </Placemark>
      <Placemark>
        <name>Beacon Lough Road</name>
        <styleUrl>#icon-1899-9C27B0-labelson-nodesc</styleUrl>
        <Point>
          <coordinates>
            -1.5826963,54.9347786,0
          </coordinates>
        </Point>
      </Placemark>
      <Placemark>
        <name>Lorton Road</name>
        <styleUrl>#icon-1899-9C27B0-labelson-nodesc</styleUrl>
        <Point>
          <coordinates>
            -1.5903355,54.9314202,0
          </coordinates>
        </Point>
      </Placemark>
      <Placemark>
        <name>The Lodges Road</name>
        <styleUrl>#icon-1899-9C27B0-labelson-nodesc</styleUrl>
        <Point>
          <coordinates>
            -1.6020498,54.9277759,0
          </coordinates>
        </Point>
      </Placemark>
      <Placemark>
        <name><![CDATA[Team Valley Sainsbury's]]></name>
        <styleUrl>#icon-1899-9C27B0-labelson-nodesc</styleUrl>
        <Point>
          <coordinates>
            -1.6097376,54.9215146,0
          </coordinates>
        </Point>
      </Placemark>
      <Placemark>
        <name>Team Valley Centre</name>
        <styleUrl>#icon-1899-9C27B0-labelson-nodesc</styleUrl>
        <Point>
          <coordinates>
            -1.6182733,54.9319317,0
          </coordinates>
        </Point>
      </Placemark>
      <Placemark>
        <name>Team Valley North</name>
        <styleUrl>#icon-1899-9C27B0-labelson-nodesc</styleUrl>
        <Point>
          <coordinates>
            -1.6243257,54.9417003,0
          </coordinates>
        </Point>
      </Placemark>
      <Placemark>
        <name>Royal Hotel</name>
        <styleUrl>#icon-1899-9C27B0-labelson-nodesc</styleUrl>
        <Point>
          <coordinates>
            -1.6472072,54.9579135,0
          </coordinates>
        </Point>
      </Placemark>
      <Placemark>
        <name>Sunderland Road</name>
        <styleUrl>#icon-1899-9C27B0-labelson-nodesc</styleUrl>
        <Point>
          <coordinates>
            -1.5261101,54.9472534,0
          </coordinates>
        </Point>
      </Placemark>
      <Placemark>
        <name>Lingshaw</name>
        <styleUrl>#icon-1899-9C27B0-labelson-nodesc</styleUrl>
        <Point>
          <coordinates>
            -1.539797,54.945325,0
          </coordinates>
        </Point>
      </Placemark>
      <Placemark>
        <name>Meresyde</name>
        <styleUrl>#icon-1899-9C27B0-labelson-nodesc</styleUrl>
        <Point>
          <coordinates>
            -1.5475251,54.9412473,0
          </coordinates>
        </Point>
      </Placemark>
      <Placemark>
        <name>Cresthaven</name>
        <styleUrl>#icon-1899-9C27B0-labelson-nodesc</styleUrl>
        <Point>
          <coordinates>
            -1.5597691,54.9418328,0
          </coordinates>
        </Point>
      </Placemark>
      <Placemark>
        <name>Windy Nook Road</name>
        <styleUrl>#icon-1899-9C27B0-labelson-nodesc</styleUrl>
        <Point>
          <coordinates>
            -1.5753291,54.9428652,0
          </coordinates>
        </Point>
      </Placemark>
      <Placemark>
        <name>Three Turns</name>
        <styleUrl>#icon-1899-9C27B0-labelson-nodesc</styleUrl>
        <Point>
          <coordinates>
            -1.587932,54.9409679,0
          </coordinates>
        </Point>
      </Placemark>
      <Placemark>
        <name>Hendon Rd</name>
        <styleUrl>#icon-1899-9C27B0-labelson-nodesc</styleUrl>
        <Point>
          <coordinates>
            -1.5845686,54.9506047,0
          </coordinates>
        </Point>
      </Placemark>
      <Placemark>
        <name>Saltwell Road Post Office</name>
        <styleUrl>#icon-1899-9C27B0-labelson-nodesc</styleUrl>
        <Point>
          <coordinates>
            -1.6158917,54.9499132,0
          </coordinates>
        </Point>
      </Placemark>
      <Placemark>
        <name>Teams Bridge</name>
        <styleUrl>#icon-1899-9C27B0-labelson-nodesc</styleUrl>
        <Point>
          <coordinates>
            -1.6336423,54.9503372,0
          </coordinates>
        </Point>
      </Placemark>
      <Placemark>
        <name>MetroCentre</name>
        <styleUrl>#icon-1899-9C27B0-labelson-nodesc</styleUrl>
        <Point>
          <coordinates>
            -1.6655118,54.95832,0
          </coordinates>
        </Point>
      </Placemark>
      <Placemark>
        <name>Fire Station</name>
        <styleUrl>#icon-1899-9C27B0-labelson-nodesc</styleUrl>
        <Point>
          <coordinates>
            -1.5776705,54.8993645,0
          </coordinates>
        </Point>
      </Placemark>
      <Placemark>
        <name>Harris Bank</name>
        <styleUrl>#icon-1899-9C27B0-labelson-nodesc</styleUrl>
        <Point>
          <coordinates>
            -1.5769633,54.8917746,0
          </coordinates>
        </Point>
      </Placemark>
      <Placemark>
        <name>Angel of the North</name>
        <styleUrl>#icon-1899-9C27B0-labelson-nodesc</styleUrl>
        <Point>
          <coordinates>
            -1.5862617,54.9126862,0
          </coordinates>
        </Point>
      </Placemark>
      <Placemark>
        <name>The Stone Trough</name>
        <styleUrl>#icon-1899-9C27B0-labelson-nodesc</styleUrl>
        <Point>
          <coordinates>
            -1.5938269,54.9249529,0
          </coordinates>
        </Point>
      </Placemark>
      <Placemark>
        <name>The Cannon</name>
        <styleUrl>#icon-1899-9C27B0-labelson-nodesc</styleUrl>
        <Point>
          <coordinates>
            -1.5995956,54.9370461,0
          </coordinates>
        </Point>
      </Placemark>
      <Placemark>
        <name>Saltwell Park</name>
        <styleUrl>#icon-1899-9C27B0-labelson-nodesc</styleUrl>
        <Point>
          <coordinates>
            -1.5994629,54.9468249,0
          </coordinates>
        </Point>
      </Placemark>
      <Placemark>
        <name>Harting Street</name>
        <styleUrl>#icon-1899-9C27B0-labelson-nodesc</styleUrl>
        <Point>
          <coordinates>
            -1.599778,54.9544652,0
          </coordinates>
        </Point>
      </Placemark>
      <Placemark>
        <name>Sandhill</name>
        <styleUrl>#icon-1899-9C27B0-labelson-nodesc</styleUrl>
        <Point>
          <coordinates>
            -1.607779,54.9688715,0
          </coordinates>
        </Point>
      </Placemark>
      <Placemark>
        <name>Sacriston Avenue</name>
        <styleUrl>#icon-1899-9C27B0-labelson-nodesc</styleUrl>
        <Point>
          <coordinates>
            -1.4134681,54.889985,0
          </coordinates>
        </Point>
      </Placemark>
      <Placemark>
        <name>Essen Way</name>
        <styleUrl>#icon-1899-9C27B0-labelson-nodesc</styleUrl>
        <Point>
          <coordinates>
            -1.3966549,54.8883238,0
          </coordinates>
        </Point>
      </Placemark>
      <Placemark>
        <name>Helvellyn Road</name>
        <styleUrl>#icon-1899-9C27B0-labelson-nodesc</styleUrl>
        <Point>
          <coordinates>
            -1.3838283,54.8835022,0
          </coordinates>
        </Point>
      </Placemark>
      <Placemark>
        <name>Askrigg Avenue</name>
        <styleUrl>#icon-1899-9C27B0-labelson-nodesc</styleUrl>
        <Point>
          <coordinates>
            -1.3645451,54.8828545,0
          </coordinates>
        </Point>
      </Placemark>
      <Placemark>
        <name>Tunstall Road</name>
        <styleUrl>#icon-1899-9C27B0-labelson-nodesc</styleUrl>
        <Point>
          <coordinates>
            -1.3892185,54.8943423,0
          </coordinates>
        </Point>
      </Placemark>
      <Placemark>
        <name>Villette Road</name>
        <styleUrl>#icon-1899-9C27B0-labelson-nodesc</styleUrl>
        <Point>
          <coordinates>
            -1.375038,54.8940724,0
          </coordinates>
        </Point>
      </Placemark>
      <Placemark>
        <name>Loverose Road</name>
        <styleUrl>#icon-1899-9C27B0-labelson-nodesc</styleUrl>
        <Point>
          <coordinates>
            -1.3647556,54.8893875,0
          </coordinates>
        </Point>
      </Placemark>
    </Folder>
  </Document>
</kml>
